{"id":0,"iataCode":"CPH","name":"Copenhagen","coordinates":{"latitude":"55.6181","longitude":"12.6561"},"routes":["VLC","SVQ","BLQ","LPL","LTN","CRL","BGY","PSR","MAD","CGN","AGP","BUD","DUB","STN","OPO","EDI","NAP","ZAD","ALC","SKG","KUN","TFS","CIA"]}
{"id":1,"iataCode":"VNO","name":"Vilnius","coordinates":{"latitude":"54.6341","longitude":"25.2858"},"routes":["HHN","LPL","LTN","CRL","BGY","MAD","BVA","CGN","OSL","NUE","DUB","CFU","BHX","STN","LBA","CHQ","SXF","MLA","BRE","ATH","BCN","TSF","AMM","CIA"]}
{"id":2,"iataCode":"FCO","name":"Rome Fiumicino","coordinates":{"latitude":"41.8045","longitude":"12.2508"},"routes":["MRS","SVQ","MAN","CIY","AGP","ACE","IBZ","TLV","TPS","SNN","BDS","CFU","STN","CHQ","EDI","BRU","MLA","BRI","ALC","PMO","CTA","BCN"]}
{"id":3,"iataCode":"NCL","name":"Newcastle","coordinates":{"latitude":"55.0375","longitude":"-1.69167"},"routes":["GRO","ALC","WMI","FAO","MAD","PMI","AGP","ACE","TFS","WRO","GDN","DUB"]}
{"id":4,"iataCode":"DUS","name":"Dusseldorf Int.","coordinates":{"latitude":"51.1722","longitude":"6.46"},"routes":["PMI"]}
{"id":5,"iataCode":"RMI","name":"Rimini","coordinates":{"latitude":"44.0203","longitude":"12.6117"},"routes":["STN","WMI","KUN"]}
{"id":6,"iataCode":"KIR","name":"Kerry","coordinates":{"latitude":"52.1809","longitude":"-9.52378"},"routes":["STN","HHN","LTN","SXF","ALC","FAO"]}
{"id":7,"iataCode":"SJU","name":"San Juan","coordinates":{"latitude":"18.2621","longitude":"-66.0007"},"routes":["MAD"]}
{"id":8,"iataCode":"TUF","name":"Tours Loire Valley","coordinates":{"latitude":"47.4322","longitude":"0.727606"},"routes":["STN","MRS","OPO","RAK","DUB"]}
{"id":9,"iataCode":"VVI","name":"Santa Cruz","coordinates":{"latitude":"-17.3841","longitude":"-63.0807"},"routes":["MAD"]}
{"id":10,"iataCode":"EDI","name":"Edinburgh","coordinates":{"latitude":"55.95","longitude":"-3.3725"},"routes":["GRO","KRK","CRL","VGO","BGY","PMI","AGP","CCF","NYO","LDY","TLS","SZZ","TLL","WRO","DUB","STN","KTW","NRN","RIX","BZR","BRE","FAO","BCN","EIN","KUN","TFS","SDR","FKB","GDN","VLC","HHN","SVQ","MRS","BLQ","BTS","NTE","LPA","POZ","WMI","FCO","GOT","SOF","FMM","ACE","IBZ","FUE","BUD","CFU","OPO","PRG","SXF","MLA","CPH","PIS","ALC","LIS","HAM","TSF","PSA","CIA","BOD"]}
{"id":11,"iataCode":"CCF","name":"Carcassonne","coordinates":{"latitude":"43.216","longitude":"2.30632"},"routes":["STN","OPO","EDI","ORK","CRL","GLA","EMA","MAN","DUB"]}
{"id":12,"iataCode":"REC","name":"Recife International","coordinates":{"latitude":"-8.1264","longitude":"-34.9228"},"routes":[]}
{"id":13,"iataCode":"FSC","name":"Figari","coordinates":{"latitude":"41.5006","longitude":"9.09778"},"routes":["BVA","CRL"]}
{"id":14,"iataCode":"BLL","name":"Billund","coordinates":{"latitude":"55.7403","longitude":"9.15178"},"routes":["STN","CHQ","GRO","SXF","MLA","POZ","ALC","ATH","BGY","PMI","AGP","PSA","CIA","BUD"]}
{"id":15,"iataCode":"RBA","name":"Rabat","coordinates":{"latitude":"34.0515","longitude":"-6.75152"},"routes":["STN","SVQ","MRS","NRN","GRO","CRL","MAD","BVA","EIN","CIA"]}
{"id":16,"iataCode":"NAP","name":"Naples","coordinates":{"latitude":"40.5304","longitude":"14.1727"},"routes":["KRK","CRL","BGY","NYO","TLS","WRO","DUB","STN","RAK","BRE","SKG","BCN","EIN","KUN","GDN","VLC","HHN","SVQ","BLQ","MAN","VCE","WMI","MAD","BUD","OPO","MLA","CPH","LIS","TSF","EMA"]}
{"id":17,"iataCode":"AMS","name":"Amsterdam","coordinates":{"latitude":"52.3105","longitude":"4.76827"},"routes":["AGP","DUB"]}
{"id":18,"iataCode":"RJK","name":"Rijeka","coordinates":{"latitude":"45.2169","longitude":"14.5703"},"routes":["STN","NYO","CRL","FRA"]}
{"id":19,"iataCode":"DNR","name":"Dinard","coordinates":{"latitude":"48.5877","longitude":"-2.07996"},"routes":["STN","EMA"]}
{"id":20,"iataCode":"VDA","name":"Eilat","coordinates":{"latitude":"29.9402","longitude":"34.9358"},"routes":["HHN","NRN","PRG","KRK","BTS","SXF","CRL","POZ","BRE","WMI","BGY","KUN","FKB","BUD","GDN"]}
{"id":21,"iataCode":"MRS","name":"Marseille","coordinates":{"latitude":"43.4393","longitude":"5.22142"},"routes":["VLC","SVQ","KRK","NTE","CRL","FCO","MAD","PMI","AGP","TUF","IBZ","NDR","BUD","TNG","STN","OPO","OTP","CHQ","EDI","MLA","ZAD","FEZ","RAK","PIS","FRA","LIS","FAO","PMO","LIL","CTA","BES","EIN","OUD","CIA","RBA"]}
{"id":22,"iataCode":"LBA","name":"Leeds Bradford","coordinates":{"latitude":"53.8659","longitude":"-1.66057"},"routes":["GRO","KRK","BTS","LPA","VCE","WMI","PMI","AGP","LIG","ACE","IBZ","MJV","FUE","WRO","DUB","CFU","CHQ","MPL","RIX","MLA","ALC","FAO","TSF","TFS","PSA","VNO","GDN"]}
{"id":23,"iataCode":"BVE","name":"Brive","coordinates":{"latitude":"45.1508","longitude":"1.46917"},"routes":["STN"]}
{"id":24,"iataCode":"GOT","name":"Göteborg Landvetter","coordinates":{"latitude":"57.6741","longitude":"12.2925"},"routes":["STN","EDI","KRK","MLA","ZAD","ALC","WMI","BGY","SKG","PMI","AGP","PSA","CIA"]}
{"id":25,"iataCode":"SZZ","name":"Szczecin","coordinates":{"latitude":"53.5847","longitude":"14.9022"},"routes":["WAW","STN","EDI","LPL","DUB"]}
{"id":26,"iataCode":"TFS","name":"Tenerife South","coordinates":{"latitude":"28.0445","longitude":"-16.5725"},"routes":["ORK","LTN","KRK","CRL","BGY","NYO","WRO","DUB","BHX","STN","NRN","MXP","BRS","SCQ","VIT","BRE","FRA","BCN","EIN","SDR","FKB","VLC","SVQ","HHN","BLQ","LPL","MAN","NCL","VCE","WMI","MAD","BVA","CGN","FMM","CWL","SNN","OPO","LBA","EDI","TRF","SXF","CPH","PIK","TSF","NOC","PSA","BOH","EMA","BFS"]}
{"id":27,"iataCode":"EFL","name":"Kefalonia","coordinates":{"latitude":"38.1201","longitude":"20.5005"},"routes":["STN","PSA","FRA","BGY"]}
{"id":28,"iataCode":"MAH","name":"Menorca","coordinates":{"latitude":"39.8626","longitude":"4.21865"},"routes":["BCN","VLC","EMA","MAD"]}
{"id":29,"iataCode":"MMX","name":"Malmo","coordinates":{"latitude":"55.5363","longitude":"13.3762"},"routes":["KRK"]}
{"id":30,"iataCode":"VGO","name":"Vigo","coordinates":{"latitude":"42.23","longitude":"-8.63"},"routes":["EDI","BLQ","BGY","BCN","DUB"]}
{"id":31,"iataCode":"SXB","name":"Strasbourg","coordinates":{"latitude":"48.5383","longitude":"7.62823"},"routes":["STN","OPO","PMI"]}
{"id":32,"iataCode":"ABZ","name":"Aberdeen","coordinates":{"latitude":"57.2019","longitude":"-2.19778"},"routes":["AGP","MLA","ALC","FAO"]}
{"id":33,"iataCode":"SZY","name":"Olsztyn - Mazury","coordinates":{"latitude":"53.4819","longitude":"20.9378"},"routes":["STN"]}
{"id":34,"iataCode":"CAG","name":"Cagliari","coordinates":{"latitude":"39.2515","longitude":"9.05428"},"routes":["GRO","KRK","CRL","BGY","PMF","STN","NRN","BRI","CTA","FKB","CUF","VRN","VLC","HHN","SVQ","BLQ","MAN","WMI","MAD","BVA","TPS","BDS","OPO","TSF","PSA","CIA"]}
{"id":35,"iataCode":"AAL","name":"Aalborg","coordinates":{"latitude":"57.0534","longitude":"9.5057"},"routes":["STN"]}
{"id":36,"iataCode":"OMR","name":"Oradea","coordinates":{"latitude":"47.0252991","longitude":"21.9025002"},"routes":["STN","EIN","NRN","FMM","GRO","BGY"]}
{"id":37,"iataCode":"STR","name":"Stuttgart","coordinates":{"latitude":"48.69","longitude":"9.2219"},"routes":["PMI","MAN","DUB"]}
{"id":38,"iataCode":"LIL","name":"Lille","coordinates":{"latitude":"50.5619","longitude":"3.08944"},"routes":["MRS","OPO"]}
{"id":39,"iataCode":"MUC","name":"Munich","coordinates":{"latitude":"48.3539","longitude":"11.7861"},"routes":["DUB"]}
{"id":40,"iataCode":"PUJ","name":"Punta Cana","coordinates":{"latitude":"18.34","longitude":"-68.2107"},"routes":["MAD"]}
{"id":41,"iataCode":"VAR","name":"Varna","coordinates":{"latitude":"43.1355","longitude":"27.4931"},"routes":["CRL"]}
{"id":42,"iataCode":"FAO","name":"Faro","coordinates":{"latitude":"37.0144","longitude":"-7.96591"},"routes":["HHN","MRS","LPL","ORK","LTN","CRL","MAN","NCL","WMI","BGY","KIR","BVA","CGN","FMM","NYO","ABZ","CWL","SNN","DUB","BHX","STN","OPO","LBA","EDI","NRN","BRS","SXF","BRE","FRA","NQY","HAM","PIK","EIN","NOC","BOH","EMA","BFS"]}
{"id":43,"iataCode":"MJV","name":"Murcia","coordinates":{"latitude":"37.775","longitude":"-0.812389"},"routes":["STN","LBA","LTN","MAN","FRA","PIK","EIN","BOH","EMA","DUB","BHX"]}
{"id":44,"iataCode":"NUE","name":"Nuremberg","coordinates":{"latitude":"49.4987","longitude":"11.0669"},"routes":["KRK","MAN","BGY","MAD","PMI","AGP","BUD","BDS","STN","OPO","MLA","RAK","BRI","ALC","PMO","SKG","CIA","VNO","VRN"]}
{"id":45,"iataCode":"DLE","name":"Dole","coordinates":{"latitude":"47.039","longitude":"5.42725"},"routes":["OPO","FEZ","RAK"]}
{"id":46,"iataCode":"SUF","name":"Lamezia","coordinates":{"latitude":"38.9054","longitude":"16.2423"},"routes":["HHN","BLQ","KRK","CRL","VCE","BGY","MAD","STN","NRN","MXP","HAM","TSF","FKB","PSA"]}
{"id":47,"iataCode":"SAP","name":"San Pedro Sula","coordinates":{"latitude":"15.271","longitude":"-87.5525"},"routes":["MAD"]}
{"id":48,"iataCode":"SOF","name":"Sofia","coordinates":{"latitude":"42.67","longitude":"23.35"},"routes":["LPL","CRL","VCE","MAD","CGN","FMM","NYO","DUB","BHX","STN","EDI","MXP","SXF","GLA","ATH","HAM","BCN","EIN","TSF","FKB","PSA","CIA","PFO","AQJ","CDT"]}
{"id":49,"iataCode":"MST","name":"Maastricht","coordinates":{"latitude":"50.9117","longitude":"5.77014"},"routes":["BRI","ALC","GRO"]}
{"id":50,"iataCode":"ZAD","name":"Zadar","coordinates":{"latitude":"44.1083","longitude":"15.3467"},"routes":["STN","HHN","MRS","NRN","BRS","SXF","CRL","CPH","GLA","MAN","FRA","BRE","BVA","GOT","FMM","NYO","FKB","DUB"]}
{"id":51,"iataCode":"LDE","name":"Lourdes","coordinates":{"latitude":"43.1787","longitude":"-0.006439"},"routes":["STN","CIA","KRK","BGY"]}
{"id":52,"iataCode":"SDQ","name":"Santo Domingo","coordinates":{"latitude":"18.2546","longitude":"-69.4008"},"routes":["MAD"]}
{"id":53,"iataCode":"CFU","name":"Corfu","coordinates":{"latitude":"39.6019","longitude":"19.9117"},"routes":["HHN","BTS","CRL","POZ","MAN","WMI","BGY","FCO","CGN","BUD","BHX","STN","KTW","LBA","NRN","EDI","RZE","FRA","PIK","EIN","TSF","PSA","CIA","EMA","VNO"]}
{"id":54,"iataCode":"AOI","name":"Ancona","coordinates":{"latitude":"43.6163","longitude":"13.3623"},"routes":["STN","NRN","CRL","TPS"]}
{"id":55,"iataCode":"VCE","name":"Venice M.Polo","coordinates":{"latitude":"45.5053","longitude":"12.3519"},"routes":["VLC","HHN","KRK","CRL","SOF","NYO","IBZ","DUB","STN","LBA","BRS","SXF","MLA","NAP","FRA","HAM","PMO","CTA","BCN","EIN","SUF","TFS","EMA"]}
{"id":56,"iataCode":"BRQ","name":"Brno","coordinates":{"latitude":"49.1513","longitude":"16.6944"},"routes":["STN"]}
{"id":57,"iataCode":"PDL","name":"Ponta Delgada","coordinates":{"latitude":"37.74194","longitude":"-25.69778"},"routes":["STN","HHN","OPO","MAN","LIS"]}
{"id":58,"iataCode":"TSF","name":"Venice Treviso","coordinates":{"latitude":"45.6484","longitude":"12.1944"},"routes":["KRK","CRL","AGP","NYO","DUB","STN","BRU","NAP","RAK","BRI","BRE","FRA","PMO","CTA","BCN","EIN","SUF","TFS","VLC","SVQ","HHN","LPA","MAN","WMI","BVA","SOF","CGN","IBZ","BDS","BUD","CFU","LBA","CHQ","EDI","SXF","MLA","HAM","CAG","EMA","VNO"]}
{"id":59,"iataCode":"TER","name":"Terceira Lajes","coordinates":{"latitude":"38.761944","longitude":"-27.090833"},"routes":["OPO","LIS"]}
{"id":60,"iataCode":"BES","name":"Brest","coordinates":{"latitude":"48.4479","longitude":"-4.41854"},"routes":["MRS"]}
{"id":61,"iataCode":"RDZ","name":"Rodez","coordinates":{"latitude":"44.4079","longitude":"2.48267"},"routes":["CRL","DUB"]}
{"id":62,"iataCode":"EZE","name":"Buenos Aires","coordinates":{"latitude":"34.492","longitude":"-58.3209"},"routes":["MAD"]}
{"id":63,"iataCode":"LUZ","name":"Lublin","coordinates":{"latitude":"51.2319","longitude":"22.6903"},"routes":["STN","DUB"]}
{"id":64,"iataCode":"OTP","name":"Bucharest","coordinates":{"latitude":"44.5722","longitude":"26.1022"},"routes":["STN","MRS","BLQ","MXP","BRS","SXF","CRL","ATH","TSR","BGY","PMO","MAD","AMM","CIA","PFO","DUB"]}
{"id":65,"iataCode":"MAN","name":"Manchester","coordinates":{"latitude":"53.3537","longitude":"-2.27495"},"routes":["KRK","GRO","CRL","BGY","PMI","AGP","CCF","AGA","RHO","PDL","WRO","DUB","RIX","NAP","ZAD","RZE","BZR","FRA","FAO","PMO","LEI","BCN","EIN","TFS","STR","GDN","VLC","SVQ","BLQ","BTS","LPA","WMI","FCO","MAD","BVA","LIG","CGN","ACE","IBZ","NUE","MJV","FUE","SNN","BDS","BUD","CFU","OPO","CHQ","TRF","SXF","MLA","REU","ALC","LIS","HAM","CAG","TSF","CIA","BFS"]}
{"id":66,"iataCode":"BOG","name":"Bogota","coordinates":{"latitude":"4.4205","longitude":"74.0849"},"routes":["MAD"]}
{"id":67,"iataCode":"PMI","name":"Mallorca","coordinates":{"latitude":"39.5517","longitude":"2.73881"},"routes":["ORK","KRK","CRL","DTM","BGY","AGP","NYO","DUS","WRO","DUB","BHX","STN","NRN","BRU","BRS","SCQ","FRA","BRE","LUX","BCN","EIN","KUN","FKB","STR","VLC","HHN","MRS","SVQ","BLQ","TXL","LPL","BTS","BLL","MAN","NCL","WMI","MAD","BVA","GOT","CGN","FMM","NUE","SNN","OPO","LBA","EDI","SXF","SXB","HAM","PIK","CIA","BOH","EMA"]}
{"id":68,"iataCode":"ASU","name":"Asuncion","coordinates":{"latitude":"25.1423","longitude":"57.3109"},"routes":["MAD"]}
{"id":69,"iataCode":"SZG","name":"Salzburg","coordinates":{"latitude":"47.7933","longitude":"13.0043"},"routes":["STN","DUB"]}
{"id":70,"iataCode":"ORK","name":"Cork","coordinates":{"latitude":"51.8413","longitude":"-8.49111"},"routes":["STN","LPL","GRO","REU","LPA","LGW","ALC","BGY","FAO","PMI","AGP","CCF","ACE","TFS","BOD","WRO","GDN"]}
{"id":71,"iataCode":"GRO","name":"Barcelona Girona","coordinates":{"latitude":"41.901","longitude":"2.76055"},"routes":["ORK","LTN","KRK","CRL","PSR","NYO","TLL","WRO","DUB","BHX","STN","NRN","BRS","RIX","FRA","BRE","SKG","EIN","KUN","FKB","RBA","HHN","LPL","BTS","BLL","POZ","MAN","NCL","OMR","BVA","MST","FMM","TPS","LBA","EDI","MLA","PIK","CAG","NOC","PSA","BOH","EMA","BFS"]}
{"id":72,"iataCode":"VLC","name":"Valencia","coordinates":{"latitude":"39.4893","longitude":"-0.481625"},"routes":["KRK","CRL","BGY","CRA","PMI","DUB","TNG","STN","NRN","BRU","MXP","BRS","SCQ","ZAD","NAP","GLA","RAK","BRI","FRA","PMO","EIN","TFS","SDR","MRS","SVQ","HHN","BLQ","LPA","MAN","VCE","WMI","MAH","BVA","CGN","ACE","IBZ","BDS","BUD","OPO","EDI","SXF","MLA","CPH","FEZ","HAM","CAG","TSF","PSA","CIA","EMA","BOD","TRS","TRN"]}
{"id":73,"iataCode":"OPO","name":"Porto","coordinates":{"latitude":"41.2481","longitude":"-8.68139"},"routes":["XCR","KRK","DLE","CRL","DTM","BGY","PMI","TUF","CCF","PDL","DUB","BHX","STN","NRN","MXP","BRU","TER","NAP","RAK","FRA","BRE","FAO","LUX","BCN","EIN","TFS","FKB","VLC","MRS","SVQ","HHN","BLQ","LPL","CFE","LPA","MAN","WMI","MAD","BVA","CGN","FMM","NUE","EBU","LRT","EDI","SXF","LRH","MLA","SXB","CPH","PIS","LIS","HAM","LIL","CAG","CIA","BOD"]}
{"id":74,"iataCode":"MXP","name":"Milan Malpensa","coordinates":{"latitude":"45.63","longitude":"8.7231"},"routes":["VLC","SVQ","LPL","LPA","CIY","SOF","STN","KTW","OPO","OTP","BRU","ALC","PMO","CTA","EIN","KUN","SUF","TFS"]}
{"id":75,"iataCode":"RZE","name":"Rzeszow","coordinates":{"latitude":"50.11","longitude":"22.019"},"routes":["STN","LTN","BRS","SXF","MAN","ATH","PIK","BOJ","EMA","DUB","CFU"]}
{"id":76,"iataCode":"AGP","name":"Malaga","coordinates":{"latitude":"36.6749","longitude":"-4.49911"},"routes":["ORK","KRK","CRL","DTM","BGY","PMI","NYO","WRO","DUB","BHX","STN","NRN","BRU","BRS","SCQ","GLA","FRA","BRE","BCN","EIN","SDR","FKB","MRS","HHN","BLQ","LPL","BTS","BLL","MAN","VST","NCL","WMI","FCO","GOT","CGN","FMM","IBZ","NUE","ABZ","SNN","BUD","LBA","EDI","TRF","PRG","SXF","CPH","HAU","HAM","PIK","AMS","TSF","NOC","BOH","EMA","BFS"]}
{"id":77,"iataCode":"PUY","name":"Pula","coordinates":{"latitude":"44.8935","longitude":"13.9222"},"routes":["CRL","STN","HHN","FRA"]}
{"id":78,"iataCode":"CFE","name":"Clermont","coordinates":{"latitude":"45.7867","longitude":"3.16917"},"routes":["STN","OPO"]}
{"id":79,"iataCode":"ZRH","name":"Zurich","coordinates":{"latitude":"47.4647","longitude":"8.5492"},"routes":[]}
{"id":80,"iataCode":"PMF","name":"Parma","coordinates":{"latitude":"44.8245","longitude":"10.2964"},"routes":["CAG","TPS"]}
{"id":81,"iataCode":"BLQ","name":"Bologna","coordinates":{"latitude":"44.5354","longitude":"11.2887"},"routes":["KRK","CRL","VGO","PMI","AGP","RHO","WRO","DUB","STN","OTP","NRN","AHO","BRS","NAP","BRI","PMO","SKG","CTA","BCN","EIN","SUF","KUN","TFS","VLC","SVQ","BTS","LPA","MAN","WMI","MAD","BVA","CGN","JMK","ACE","IBZ","TPS","BDS","OPO","CHQ","EDI","PRG","SXF","MLA","CPH","ALC","ATH","LIS","CAG","AMM","BOD"]}
{"id":82,"iataCode":"CTA","name":"Catania","coordinates":{"latitude":"37.4668","longitude":"15.0664"},"routes":["BGY","MXP","RAK","FRA","PEG","EIN","MRS","SVQ","BLQ","VCE","FCO","MAD","SXF","MLA","ATH","CAG","TSF","PSA","TRS","TRN"]}
{"id":83,"iataCode":"TLS","name":"Toulouse","coordinates":{"latitude":"43.6044","longitude":"1.4439"},"routes":["STN","SVQ","EDI","SXF","MLA","NAP","CRL","FEZ","FRA","LIS","WMI","MAD"]}
{"id":84,"iataCode":"VXO","name":"Växjö Småland","coordinates":{"latitude":"56.9291","longitude":"14.728"},"routes":["NRN","ALC","GDN"]}
{"id":85,"iataCode":"XCR","name":"Paris Vatry","coordinates":{"latitude":"48.7761","longitude":"4.18449"},"routes":["OPO","RAK"]}
{"id":86,"iataCode":"FEZ","name":"Fez","coordinates":{"latitude":"33.9273","longitude":"-4.97796"},"routes":["VLC","SVQ","HHN","MRS","NTE","DLE","CRL","BGY","MAD","BVA","FMM","TLS","EBU","STN","NRN","FNI","BRE","BCN","EIN","PSA"]}
{"id":87,"iataCode":"GDN","name":"Gdansk","coordinates":{"latitude":"54.3776","longitude":"18.4662"},"routes":["VXO","WAW","ORK","KRK","MAN","NCL","BGY","AAR","NYO","TLV","VDA","WRO","DUB","BHX","STN","LBA","EDI","TRF","BRS","MLA","NAP","ALC","ATH","PSA","BFS"]}
{"id":88,"iataCode":"POZ","name":"Poznan","coordinates":{"latitude":"52.421","longitude":"16.8263"},"routes":["STN","EDI","LPL","TRF","BRS","GRO","BLL","MLA","ALC","ATH","BGY","MAD","TLV","VDA","CDT","DUB","CFU"]}
{"id":89,"iataCode":"CUN","name":"Cancun","coordinates":{"latitude":"49.1513","longitude":"16.6944"},"routes":["MAD"]}
{"id":90,"iataCode":"AHO","name":"Alghero","coordinates":{"latitude":"40.6321","longitude":"8.29077"},"routes":["STN","HHN","BLQ","BTS","DTM","CRL","BGY","EIN","FMM","PSA"]}
{"id":91,"iataCode":"NRN","name":"Dusseldorf Weeze","coordinates":{"latitude":"51.6024","longitude":"6.14217"},"routes":["VXO","LTN","GRO","INI","CIY","TSR","BGY","PSR","PMI","AGP","NYO","TLV","AOI","AGA","TLL","STN","TNG","ZAD","RAK","BRI","BZR","FAO","PMO","BZG","SKG","SUF","SDR","TFS","OUD","RBA","VLC","BLQ","LPA","OMR","ACE","IBZ","NDR","FUE","VDA","CFU","OPO","CHQ","EDI","MLA","FEZ","ALC","CAG","BOJ","PSA","CIA"]}
{"id":92,"iataCode":"TRN","name":"Turin","coordinates":{"latitude":"45.2008","longitude":"7.64963"},"routes":["VLC","STN","MLA","CRL","BRI","CIY","PMO","CTA","BCN","IBZ","DUB","BDS"]}
{"id":93,"iataCode":"OUD","name":"Oujda","coordinates":{"latitude":"34.7872","longitude":"-1.92399"},"routes":["CRL","BVA","MRS","NRN"]}
{"id":94,"iataCode":"EGC","name":"Bergerac","coordinates":{"latitude":"44.8253","longitude":"0.518611"},"routes":["STN","LPL","BRS","CRL","EMA"]}
{"id":95,"iataCode":"AMM","name":"Amman Jordan","coordinates":{"latitude":"31.9497","longitude":"35.9328"},"routes":["OTP","BLQ","PRG","BRU","KRK","WMI","BGY","PFO","VNO","BUD"]}
{"id":96,"iataCode":"ORY","name":"Paris Orly","coordinates":{"latitude":"48.7233","longitude":"2.3794"},"routes":[]}
{"id":97,"iataCode":"GLA","name":"Glasgow","coordinates":{"latitude":"55.67194","longitude":"-4.43306"},"routes":["VLC","KRK","LPA","CRL","WMI","MAD","SOF","AGP","CCF","ACE","LDY","PLQ","WRO","DUB","STN","CHQ","SXF","RIX","ZAD","ALC","FRA","LIS","BZG"]}
{"id":98,"iataCode":"TFN","name":"Tenerife North","coordinates":{"latitude":"28.4827","longitude":"-16.3415"},"routes":["MAD","BCN"]}
{"id":99,"iataCode":"LEI","name":"Almeria","coordinates":{"latitude":"36.8439","longitude":"-2.3701"},"routes":["STN","CRL","MAN","DUB"]}
{"id":100,"iataCode":"CRV","name":"Crotone","coordinates":{"latitude":"38.99722","longitude":"17.08028"},"routes":["BGY"]}
{"id":101,"iataCode":"BRI","name":"Bari","coordinates":{"latitude":"41.1389","longitude":"16.7606"},"routes":["CRL","BGY","DUB","STN","NRN","FKB","VLC","SVQ","HHN","BLQ","LPL","FCO","MAD","BVA","MST","NUE","GOA","SXF","MLA","CAG","TSF","PSA","TRS","TRN"]}
{"id":102,"iataCode":"BRU","name":"Brussels","coordinates":{"latitude":"50.9014","longitude":"4.48444"},"routes":["VLC","FCO","MAD","PMI","AGP","IBZ","DUB","OPO","MXP","SXF","MLA","RAK","ALC","LIS","HAM","BCN","LCA","TSF","AMM"]}
{"id":103,"iataCode":"PEG","name":"Perugia","coordinates":{"latitude":"43.0959","longitude":"12.5132"},"routes":["STN","CRL","TPS","FRA","CTA"]}
{"id":104,"iataCode":"VLL","name":"Valladolid","coordinates":{"latitude":"41.7061","longitude":"-4.85194"},"routes":["BCN","SVQ","ACE"]}
{"id":105,"iataCode":"AQJ","name":"Aqaba Jordan","coordinates":{"latitude":"29.364183","longitude":"35.010504"},"routes":["CIA","SOF","CGN","ATH"]}
{"id":106,"iataCode":"WAW","name":"Warsaw Chopin","coordinates":{"latitude":"52.1657","longitude":"20.9671"},"routes":["SZZ","WRO","GDN"]}
{"id":107,"iataCode":"LIS","name":"Lisbon","coordinates":{"latitude":"38.7813","longitude":"-9.13592"},"routes":["KRK","CRL","BGY","TLS","PDL","WRO","DUB","STN","BRU","TER","NAP","GLA","BRE","FRA","LUX","EIN","FKB","HHN","MRS","BLQ","MAN","WMI","BVA","OPO","EDI","SXF","HAM","PSA","CIA"]}
{"id":108,"iataCode":"LPL","name":"Liverpool","coordinates":{"latitude":"53.3336","longitude":"-2.84972"},"routes":["ORK","KRK","GRO","DTM","LPA","POZ","WMI","PMI","AGP","SOF","ACE","EGC","IBZ","LDY","RHO","FUE","SZZ","SNN","WRO","DUB","OPO","PRG","MXP","FNI","REU","MLA","CPH","RAK","BRI","ALC","FAO","BCN","TFS","NOC","PSA","PFO","VNO"]}
{"id":109,"iataCode":"LYS","name":"Lyon","coordinates":{"latitude":"45.7256","longitude":"5.0811"},"routes":["DUB"]}
{"id":110,"iataCode":"NQY","name":"Newquay Cornwall","coordinates":{"latitude":"50.4406","longitude":"-4.99541"},"routes":["HHN","ALC","FAO"]}
{"id":111,"iataCode":"ZAZ","name":"Zaragoza","coordinates":{"latitude":"41.6662","longitude":"-1.04155"},"routes":["STN","BVA","CRL","BGY"]}
{"id":112,"iataCode":"MVD","name":"Montevideo","coordinates":{"latitude":"-34.5018","longitude":"-56.0151"},"routes":["MAD"]}
{"id":113,"iataCode":"REU","name":"Barcelona Reus","coordinates":{"latitude":"41.1474","longitude":"1.16717"},"routes":["STN","HHN","LPL","ORK","BRS","CRL","MAN","PIK","EIN","EMA","SNN","DUB","BHX"]}
{"id":114,"iataCode":"BIQ","name":"Biarritz","coordinates":{"latitude":"43.4684","longitude":"-1.52332"},"routes":["STN","NYO","CRL","DUB"]}
{"id":115,"iataCode":"BOH","name":"Bournemouth","coordinates":{"latitude":"50.78","longitude":"-1.8425"},"routes":["KRK","GRO","MLA","LPA","ALC","FAO","PMI","AGP","TFS","PFO","MJV"]}
{"id":116,"iataCode":"TPS","name":"Trapani","coordinates":{"latitude":"37.9114","longitude":"12.488"},"routes":["HHN","BLQ","KRK","GRO","BTS","CRL","WMI","BGY","FCO","PMF","AOI","GOA","PRG","MLA","PEG","CAG","EIN","KUN","FKB","PSA","TRS","CUF"]}
{"id":117,"iataCode":"ACE","name":"Lanzarote","coordinates":{"latitude":"28.9455","longitude":"-13.6052"},"routes":["ORK","LTN","CRL","BGY","DUB","BHX","STN","NRN","BRS","SCQ","GLA","FRA","BCN","EIN","VLC","SVQ","HHN","BLQ","LPL","MAN","NCL","FCO","MAD","VLL","SNN","LBA","EDI","SXF","PIK","NOC","EMA","BFS"]}
{"id":118,"iataCode":"STN","name":"London Stansted","coordinates":{"latitude":"51.885","longitude":"0.235"},"routes":["LDE","EFL","KRK","DTM","LCJ","TSR","PMI","TUF","CCF","NYO","EGC","AOI","PLQ","DUB","KTW","MXP","SCQ","BRQ","ZAD","RAK","GLA","BRI","BRE","LUZ","LEJ","PMO","LUX","LEI","BCN","AAL","EIN","SUF","KUN","SDR","TFS","FKB","BSL","ZAZ","CDT","RBA","HHN","MRS","BLQ","BLL","NTE","LPA","VST","VCE","FCO","PGF","MAD","NCE","RMI","SOF","NUE","FUE","SNN","LRT","EDI","TRF","LRH","FEZ","CPH","PIS","ALC","CAG","TSF","BOD","TRS","TRN","ORK","GRO","SZG","CIY","KIR","BGY","PSR","OSR","BIQ","AGP","OSL","PDV","TLS","AGA","RHO","PDL","SZZ","TLL","WRO","SZY","OTP","NRN","DNR","AHO","RIX","RZE","NAP","BZR","FRA","PUY","FAO","PEG","SKG","PED","BZG","DOL","PFO","LNZ","RJK","GDN","VRN","VLC","SVQ","BTS","CFE","GNB","POZ","WMI","OMR","TGD","AAR","GOT","CGN","LIG","FMM","ACE","IBZ","MJV","GOA","BDS","BUD","CFU","OPO","CHQ","PRG","FNI","SXF","REU","MLA","SXB","ATH","LIS","HAM","BVE","NOC","XRY","PSA","CIA","VNO","BFS"]}
{"id":119,"iataCode":"AGA","name":"Agadir","coordinates":{"latitude":"30.325","longitude":"-9.41307"},"routes":["STN","EIN","NRN","CRL","MAN","FRA"]}
{"id":120,"iataCode":"BRE","name":"Bremen","coordinates":{"latitude":"53.0475","longitude":"8.78667"},"routes":["GRO","BGY","PMI","AGP","NYO","TLV","FUE","VDA","TLL","DUB","STN","OPO","CHQ","EDI","RIX","ZAD","NAP","FEZ","TMP","ALC","LIS","FAO","SKG","TSF","TFS","VNO"]}
{"id":121,"iataCode":"AAR","name":"Aarhus","coordinates":{"latitude":"56.3","longitude":"10.619"},"routes":["STN","EIN","GDN"]}
{"id":122,"iataCode":"TRS","name":"Trieste","coordinates":{"latitude":"45.8275","longitude":"13.4722"},"routes":["VLC","STN","CIA","BRI","TPS","CTA"]}
{"id":123,"iataCode":"IBZ","name":"Ibiza","coordinates":{"latitude":"38.8729","longitude":"1.37312"},"routes":["CRL","BGY","AGP","DUB","BHX","STN","NRN","BRU","BRS","BCN","EIN","VLC","HHN","SVQ","MRS","BLQ","LPL","MAN","VCE","FCO","MAD","LBA","EDI","PIK","TSF","PSA","EMA","TRN"]}
{"id":124,"iataCode":"ATH","name":"Athens","coordinates":{"latitude":"37.9364","longitude":"23.9445"},"routes":["KRK","CRL","LCJ","BGY","RHO","WRO","DUB","STN","KTW","OTP","RZE","RAK","FRA","PMO","SKG","CTA","EIN","FKB","AQJ","GDN","LPP","BLQ","JTR","BTS","BLL","POZ","WMI","SOF","JMK","FMM","BUD","CHQ","SXF","MLA","CIA","VNO"]}
{"id":125,"iataCode":"JTR","name":"Santorini","coordinates":{"latitude":"36.3992","longitude":"25.4793"},"routes":["ATH","FRA"]}
{"id":126,"iataCode":"TSR","name":"Timisoara","coordinates":{"latitude":"45.81","longitude":"21.3381"},"routes":["STN","HHN","OTP","NRN","SXF","CRL","BGY"]}
{"id":127,"iataCode":"EBU","name":"St Etienne","coordinates":{"latitude":"45.5406","longitude":"4.29639"},"routes":["OPO","FEZ"]}
{"id":128,"iataCode":"PED","name":"Pardubice","coordinates":{"latitude":"50.0048","longitude":"15.4419"},"routes":["STN","ALC"]}
{"id":129,"iataCode":"LUX","name":"Luxembourg","coordinates":{"latitude":"49.6233","longitude":"6.2044"},"routes":["STN","OPO","SVQ","LIS","BGY","MAD","BCN","PMI","DUB"]}
{"id":130,"iataCode":"TGD","name":"Podgorica","coordinates":{"latitude":"42.3594","longitude":"19.2519"},"routes":["STN","NYO","SXF","CRL"]}
{"id":131,"iataCode":"SKG","name":"Thessaloniki","coordinates":{"latitude":"40.5197","longitude":"22.9709"},"routes":["HHN","BLQ","GRO","BTS","DTM","CRL","WMI","BGY","BVA","GOT","FMM","NYO","NUE","BUD","STN","CHQ","NRN","SXF","NAP","CPH","BRE","ATH","HAM","EIN","FKB","CIA","PFO"]}
{"id":132,"iataCode":"NTE","name":"Nantes","coordinates":{"latitude":"47.1532","longitude":"-1.61073"},"routes":["STN","SVQ","MRS","EDI","FEZ","DUB"]}
{"id":133,"iataCode":"PFO","name":"Paphos","coordinates":{"latitude":"34.718","longitude":"32.4857"},"routes":["LPL","KRK","BTS","BGY","SOF","NYO","TLV","TLL","BUD","DUB","STN","OTP","CHQ","RIX","SKG","KUN","AMM","BOH","CIA"]}
{"id":134,"iataCode":"LEJ","name":"Leipzig","coordinates":{"latitude":"51.4324","longitude":"12.2416"},"routes":["STN"]}
{"id":135,"iataCode":"FRA","name":"Frankfurt International","coordinates":{"latitude":"50.02","longitude":"8.3414"},"routes":["EFL","GRO","KRK","BGY","PMI","AGP","AGA","TLS","DUB","STN","ZAD","GLA","FAO","PUY","PEG","CTA","BCN","TFS","RJK","VLC","SVQ","MRS","JTR","LPA","MAN","VCE","PGF","MAD","JMK","ACE","MJV","BDS","CFU","OPO","CHQ","ALC","ATH","LIS","TSF","PSA"]}
{"id":136,"iataCode":"CIA","name":"Rome Ciampino","coordinates":{"latitude":"41.7994","longitude":"12.5949"},"routes":["LDE","KRK","CRL","CIY","PMI","NYO","WRO","DUB","STN","OTP","NRN","RAK","SKG","EIN","SDR","FKB","PFO","AQJ","RBA","VLC","HHN","SVQ","MRS","BTS","BLL","MAN","WMI","MAD","BVA","GOT","CGN","SOF","NUE","BUD","CFU","OPO","EDI","PRG","SXF","MLA","CPH","ATH","LIS","PIK","CAG","EMA","BOD","VNO","TRS"]}
{"id":137,"iataCode":"SNN","name":"Shannon","coordinates":{"latitude":"52.702","longitude":"-8.92482"},"routes":["LPL","KRK","LGW","MAN","WMI","FCO","PMI","AGP","ACE","FUE","WRO","STN","BRS","SXF","REU","ALC","FAO","KUN","TFS"]}
{"id":138,"iataCode":"CRL","name":"Brussels Charleroi","coordinates":{"latitude":"50.4592","longitude":"4.45382"},"routes":["KRK","TSR","PMI","CCF","NYO","EGC","AOI","DUB","ZAD","GLA","RAK","BRI","PMO","LEI","BCN","SUF","TFS","SDR","ZAZ","RBA","MRS","BLQ","LPA","MAN","VCE","PGF","MAD","SOF","NDR","TPS","FUE","VDA","EDI","LRH","FEZ","CPH","ALC","CAG","TSF","BOD","TRN","GRO","CIY","BGY","PSR","BIQ","AGP","PDV","TLV","TLS","AGA","RHO","WRO","TNG","OTP","MPL","VAR","AHO","RIX","NAP","FAO","PUY","PEG","SKG","OUD","FSC","RJK","VRN","VLC","SVQ","BTS","WMI","TGD","RDZ","ACE","IBZ","BUD","BDS","CFU","OPO","CHQ","PRG","FNI","MLA","REU","ATH","LIS","PSA","CIA","VNO"]}
{"id":139,"iataCode":"KUN","name":"Kaunas","coordinates":{"latitude":"54.9639","longitude":"24.0848"},"routes":["BLQ","LTN","GRO","RMI","PMI","TLV","RHO","TPS","SNN","VDA","DUB","STN","EDI","MXP","BRS","NAP","CPH","ALC","BOJ","PFO"]}
{"id":140,"iataCode":"BRS","name":"Bristol","coordinates":{"latitude":"51.3827","longitude":"-2.71909"},"routes":["GRO","KRK","BGY","PMI","AGP","EGC","WRO","DUB","OTP","RZE","ZAD","BZR","FAO","KUN","TFS","CDT","GDN","VLC","SVQ","BLQ","LPA","POZ","VCE","WMI","MAD","LIG","CGN","ACE","IBZ","SNN","BUD","CHQ","REU","MLA","ALC","NOC"]}
{"id":141,"iataCode":"BGY","name":"Milan Bergamo","coordinates":{"latitude":"45.6739","longitude":"9.70417"},"routes":["LDE","EFL","CRV","KRK","INI","CRL","VGO","TSR","PMI","NYO","DUB","STN","BRS","SCQ","VIT","RAK","BRI","BRE","PMO","LUX","CTA","BCN","EIN","SUF","TFS","SDR","ZAZ","LPP","BLL","LPA","MAN","MAD","NUE","TPS","FUE","VDA","EDI","TRF","FEZ","CPH","ALC","CAG","AMM","BOJ","BOD","ORK","CIY","PSR","OSR","AGP","PDV","TLV","RHO","TLL","WRO","TNG","OTP","NRN","AHO","RIX","NAP","FRA","FAO","SKG","PFO","GDN","VLC","SVQ","BTS","POZ","WMI","OMR","BVA","GOT","CGN","ACE","IBZ","BUD","BDS","CFU","OPO","CHQ","PRG","SXF","MLA","ATH","LIS","HAM","NOC","EMA","VNO","BFS"]}
{"id":142,"iataCode":"EIN","name":"Eindhoven","coordinates":{"latitude":"51.4501","longitude":"5.37453"},"routes":["KRK","GRO","BGY","PMI","AGP","NYO","AGA","DUB","TNG","STN","AHO","MXP","RIX","NAP","RAK","FAO","SKG","CTA","TFS","RBA","VLC","SVQ","MRS","BLQ","BTS","LPA","MAN","VCE","WMI","OMR","AAR","MAD","SOF","ACE","IBZ","MJV","TPS","BDS","CFU","OPO","CHQ","EDI","PRG","MLA","REU","FEZ","ALC","ATH","LIS","TSF","PSA","CIA"]}
{"id":143,"iataCode":"LIG","name":"Limoges","coordinates":{"latitude":"45.8628","longitude":"1.17944"},"routes":["STN","LBA","EMA","MAN","BRS"]}
{"id":144,"iataCode":"BHX","name":"Birmingham","coordinates":{"latitude":"52.4539","longitude":"-1.74803"},"routes":["GRO","KRK","BTS","LPA","WMI","PGF","MAD","PMI","SOF","AGP","ACE","IBZ","MJV","FUE","DUB","CFU","KTW","OPO","CHQ","MLA","REU","ALC","FAO","BZG","BCN","TFS","VNO","GDN","VRN"]}
{"id":145,"iataCode":"OSL","name":"Oslo","coordinates":{"latitude":"60.2028","longitude":"11.0839"},"routes":["STN","VNO"]}
{"id":146,"iataCode":"LNZ","name":"Linz","coordinates":{"latitude":"48.2332","longitude":"14.1875"},"routes":["STN"]}
{"id":147,"iataCode":"FUE","name":"Fuerteventura","coordinates":{"latitude":"28.4527","longitude":"-13.8638"},"routes":["SVQ","LPL","LTN","CRL","MAN","WMI","BGY","MAD","SNN","DUB","BHX","STN","LBA","EDI","NRN","SXF","BRE","PIK","BCN","PSA","EMA"]}
{"id":148,"iataCode":"LRH","name":"La Rochelle","coordinates":{"latitude":"46.1792","longitude":"-1.19528"},"routes":["STN","OPO","CRL","DUB"]}
{"id":149,"iataCode":"BSL","name":"Basel","coordinates":{"latitude":"47.5896","longitude":"7.52991"},"routes":["STN","DUB"]}
{"id":150,"iataCode":"ALC","name":"Alicante","coordinates":{"latitude":"38.2822","longitude":"-0.558156"},"routes":["VXO","ORK","KRK","CRL","BGY","KIR","NYO","WRO","DUB","BHX","STN","NRN","BRU","MXP","BRS","SCQ","GLA","BRE","FRA","NQY","PED","EIN","KUN","FKB","GDN","HHN","SVQ","BLQ","LPL","BLL","POZ","LGW","MAN","VST","NCL","WMI","FCO","BVA","MST","GOT","CGN","FMM","NUE","ABZ","SNN","LBA","EDI","TRF","SXF","CPH","HAU","HAM","PIK","NOC","BOH","EMA","BFS"]}
{"id":151,"iataCode":"INI","name":"Nis","coordinates":{"latitude":"43.3372","longitude":"21.8536"},"routes":["NRN","NYO","BTS","SXF","BGY"]}
{"id":152,"iataCode":"KRK","name":"Krakow","coordinates":{"latitude":"50.0777","longitude":"19.7848"},"routes":["LDE","GRO","DTM","CRL","MMX","BGY","PSR","PMI","AGP","NYO","TLV","DUB","BHX","STN","BRS","NAP","GLA","RAK","FRA","BCN","EIN","SUF","TFS","PFO","GDN","VLC","SVQ","MRS","BLQ","LPL","LPA","MAN","VCE","MAD","BVA","GOT","NUE","TPS","VDA","SNN","OPO","LBA","CHQ","EDI","TRF","PRG","SXF","MLA","ALC","ATH","LIS","CAG","TSF","AMM","BOJ","PSA","CIA","BOH","EMA","BFS"]}
{"id":153,"iataCode":"CGN","name":"Cologne","coordinates":{"latitude":"50.8659","longitude":"7.14274"},"routes":["BGY","PMI","AGP","DUB","STN","BRS","VIT","RIX","RAK","FAO","PMO","BCN","TFS","AQJ","VLC","SVQ","BLQ","LPA","MAN","WMI","MAD","SOF","CFU","OPO","SXF","MLA","CPH","ALC","TSF","CIA","VNO"]}
{"id":154,"iataCode":"BFS","name":"Belfast International","coordinates":{"latitude":"54.6575","longitude":"-6.2158"},"routes":["STN","GRO","KRK","SXF","MLA","LGW","MAN","ALC","WMI","FAO","BGY","AGP","ACE","TFS","WRO","GDN"]}
{"id":155,"iataCode":"XRY","name":"Jerez","coordinates":{"latitude":"36.7446","longitude":"-6.06011"},"routes":["BCN","STN","HHN"]}
{"id":156,"iataCode":"VIT","name":"Vitoria (Basque Country)","coordinates":{"latitude":"42.8828","longitude":"-2.7244"},"routes":["SVQ","CGN","TFS","BGY"]}
{"id":157,"iataCode":"TNG","name":"Tangier","coordinates":{"latitude":"35.7269","longitude":"-5.91689"},"routes":["VLC","SVQ","MRS","HHN","NRN","CRL","BGY","MAD","BVA","EIN"]}
{"id":158,"iataCode":"GOA","name":"Genoa","coordinates":{"latitude":"44.4133","longitude":"8.8375"},"routes":["STN","BRI","TPS"]}
{"id":159,"iataCode":"SVQ","name":"Seville","coordinates":{"latitude":"37.418","longitude":"-5.89311"},"routes":["KRK","CRL","BGY","PMI","TLS","DUB","STN","TNG","MXP","BRS","SCQ","VIT","NAP","RAK","BRI","FRA","LUX","CTA","BCN","EIN","TFS","FKB","RBA","VRN","VLC","MRS","BLQ","NTE","LPA","MAN","WMI","FCO","BVA","CGN","FMM","ACE","IBZ","VLL","FUE","BDS","OPO","EDI","SXF","MLA","CPH","FEZ","ALC","HAM","CAG","TSF","PSA","CIA","EMA","BOD"]}
{"id":160,"iataCode":"LRT","name":"Lorient","coordinates":{"latitude":"47.7588","longitude":"-3.4378"},"routes":["STN","OPO"]}
{"id":161,"iataCode":"NCE","name":"Nice","coordinates":{"latitude":"43.6584","longitude":"7.21587"},"routes":["STN","DUB"]}
{"id":162,"iataCode":"BCN","name":"Barcelona","coordinates":{"latitude":"41.2971","longitude":"2.07846"},"routes":["KRK","CRL","VGO","BGY","PMI","AGP","NYO","DUB","BHX","STN","BRU","SCQ","NAP","RAK","FRA","LUX","TFS","SDR","TFN","SVQ","BLQ","LPL","LPA","MAN","VCE","WMI","MAH","FCO","BVA","SOF","CGN","ACE","IBZ","NDR","FUE","VLL","BUD","OPO","EDI","PRG","SXF","MLA","FEZ","HAM","PIK","TSF","XRY","EMA","VNO","TRN"]}
{"id":163,"iataCode":"MLA","name":"Malta","coordinates":{"latitude":"35.8575","longitude":"14.4775"},"routes":["LTN","GRO","KRK","CRL","BGY","PSR","NYO","TLS","WRO","TLL","DUB","BHX","STN","NRN","BRU","BRS","RIX","NAP","BRI","CTA","BCN","EIN","FKB","GDN","VLC","SVQ","MRS","BLQ","LPL","BTS","BLL","POZ","MAN","VCE","FCO","MAD","BVA","GOT","CGN","NUE","ABZ","TPS","BDS","BUD","OPO","LBA","EDI","SXF","ATH","PIK","TSF","PSA","CIA","BOH","EMA","VNO","BFS","TRN"]}
{"id":164,"iataCode":"LCA","name":"Larnaca","coordinates":{"latitude":"34.8751","longitude":"33.6249"},"routes":["BRU"]}
{"id":165,"iataCode":"TMP","name":"Tampere","coordinates":{"latitude":"61.4141","longitude":"23.6044"},"routes":["BRE","BUD"]}
{"id":166,"iataCode":"LIM","name":"Lima","coordinates":{"latitude":"-12.0119","longitude":"-77.0652"},"routes":["MAD"]}
{"id":167,"iataCode":"PIS","name":"Poitiers","coordinates":{"latitude":"46.5877","longitude":"0.306666"},"routes":["STN","OPO","MRS","EDI","RAK","DUB"]}
{"id":168,"iataCode":"PSA","name":"Pisa","coordinates":{"latitude":"43.6839","longitude":"10.3927"},"routes":["EFL","GRO","KRK","CRL","CIY","NYO","RHO","DUB","STN","NRN","AHO","RAK","BRI","FRA","PMO","CTA","EIN","SUF","TFS","GDN","VLC","SVQ","HHN","LPL","BLL","LPA","WMI","MAD","BVA","GOT","SOF","IBZ","TPS","FUE","BDS","BUD","CFU","LBA","CHQ","EDI","PRG","SXF","MLA","FEZ","LIS","PIK","CAG","EMA"]}
{"id":169,"iataCode":"HHN","name":"Frankfurt Hahn","coordinates":{"latitude":"49.9487","longitude":"7.26389"},"routes":["GRO","CIY","TSR","KIR","PSR","PMI","AGP","PDV","TLV","PDL","DUB","STN","TNG","MPL","AHO","RIX","SCQ","ZAD","NAP","RAK","BRI","NQY","FAO","PUY","SKG","SUF","TFS","VLC","LPA","VCE","ACE","IBZ","NDR","TPS","VDA","CFU","OPO","CHQ","EDI","REU","FEZ","ALC","LIS","CAG","TSF","XRY","BOJ","PSA","CIA","VNO"]}
{"id":170,"iataCode":"RHO","name":"Rhodes","coordinates":{"latitude":"36.4054","longitude":"28.0862"},"routes":["STN","BLQ","LPL","CRL","MAN","ATH","BGY","NYO","KUN","PSA","EMA"]}
{"id":171,"iataCode":"OSR","name":"Ostrava","coordinates":{"latitude":"49.6963","longitude":"18.1111"},"routes":["STN","BGY"]}
{"id":172,"iataCode":"BOJ","name":"Burgas","coordinates":{"latitude":"42.3413","longitude":"27.3055"},"routes":["HHN","NRN","KRK","RIX","BTS","RZE","WMI","BGY","FMM","KUN","TLV"]}
{"id":173,"iataCode":"CCS","name":"Caracas","coordinates":{"latitude":"10.3611","longitude":"66.5926"},"routes":["MAD"]}
{"id":174,"iataCode":"VST","name":"Stockholm Västerås","coordinates":{"latitude":"59.5894","longitude":"16.6336"},"routes":["STN","AGP","ALC"]}
{"id":175,"iataCode":"MIA","name":"Miami","coordinates":{"latitude":"25.4736","longitude":"-80.1726"},"routes":["MAD"]}
{"id":176,"iataCode":"TXL","name":"Berlin Tegel","coordinates":{"latitude":"52.3335","longitude":"13.1716"},"routes":["PMI"]}
{"id":177,"iataCode":"HAM","name":"Hamburg","coordinates":{"latitude":"53.63028","longitude":"9.99111"},"routes":["VLC","SVQ","LPA","MAN","VCE","BGY","MAD","PMI","SOF","AGP","DUB","STN","OPO","KTW","EDI","TRF","BRU","RAK","ALC","LIS","FAO","SKG","BCN","TSF","SUF","VRN"]}
{"id":178,"iataCode":"SXF","name":"Berlin Schönefeld","coordinates":{"latitude":"52.38","longitude":"13.5225"},"routes":["KRK","INI","TSR","KIR","BGY","PMI","AGP","TLV","TLS","DUB","STN","OTP","BRU","RIX","RZE","ZAD","GLA","RAK","BRI","FAO","PMO","SKG","CTA","BCN","SDR","TFS","VRN","VLC","SVQ","BLQ","BTS","BLL","LPA","MAN","VCE","TGD","MAD","CGN","SOF","ACE","FUE","SNN","VDA","BUD","OPO","EDI","MLA","ALC","ATH","LIS","TSF","PSA","CIA","EMA","VNO","BFS"]}
{"id":179,"iataCode":"NOC","name":"Knock","coordinates":{"latitude":"53.9103","longitude":"-8.81849"},"routes":["STN","LPL","LTN","BRS","GRO","ALC","FAO","BGY","AGP","ACE","TFS","EMA"]}
{"id":180,"iataCode":"HAV","name":"Havana","coordinates":{"latitude":"22.5921","longitude":"-82.2433"},"routes":["MAD"]}
{"id":181,"iataCode":"JMK","name":"Mykonos","coordinates":{"latitude":"37.4351","longitude":"25.3481"},"routes":["BLQ","FRA","ATH"]}
{"id":182,"iataCode":"MPL","name":"Montpellier","coordinates":{"latitude":"43.5762","longitude":"3.96301"},"routes":["CRL","HHN","LBA"]}
{"id":183,"iataCode":"LCG","name":"A Coruna","coordinates":{"latitude":"43.3019","longitude":"-8.3772"},"routes":[]}
{"id":184,"iataCode":"BUD","name":"Budapest","coordinates":{"latitude":"47.4369","longitude":"19.2556"},"routes":["CRL","BGY","AGP","TLV","DUB","STN","BRS","NAP","RAK","TMP","PMO","SKG","BCN","SDR","PFO","VLC","MRS","BLL","LPA","MAN","MAD","BVA","NUE","VDA","CFU","EDI","PRG","SXF","MLA","CPH","ATH","TSF","AMM","PSA","CIA","EMA"]}
{"id":185,"iataCode":"LTN","name":"London Luton","coordinates":{"latitude":"51.8747","longitude":"-0.368333"},"routes":["GRO","LPA","KIR","ACE","MJV","FUE","DUB","NRN","FNI","MLA","RZE","CPH","RAK","BZR","FAO","BZG","KUN","TFS","NOC","VNO"]}
{"id":186,"iataCode":"LPA","name":"Gran Canaria","coordinates":{"latitude":"27.9319","longitude":"-15.3866"},"routes":["ORK","LTN","KRK","CRL","BGY","NYO","DUB","BHX","STN","NRN","MXP","BRS","SCQ","GLA","FRA","BCN","EIN","VLC","SVQ","HHN","BLQ","LPL","MAN","WMI","MAD","CGN","BUD","OPO","LBA","EDI","TRF","SXF","HAM","PIK","TSF","PSA","BOH","EMA"]}
{"id":187,"iataCode":"BOD","name":"Bordeaux","coordinates":{"latitude":"44.8283","longitude":"-0.715556"},"routes":["VLC","STN","SVQ","OPO","EDI","BLQ","ORK","CRL","BGY","CIA"]}
{"id":188,"iataCode":"JFK","name":"New York (JFK)","coordinates":{"latitude":"73.4644","longitude":"40.3823"},"routes":["MAD"]}
{"id":189,"iataCode":"LCJ","name":"Lodz","coordinates":{"latitude":"51.7219","longitude":"19.3981"},"routes":["STN","EMA","ATH","DUB"]}
{"id":190,"iataCode":"PLQ","name":"Palanga","coordinates":{"latitude":"55.9733","longitude":"21.0939"},"routes":["STN","GLA"]}
{"id":191,"iataCode":"PSR","name":"Pescara","coordinates":{"latitude":"42.4317","longitude":"14.1811"},"routes":["STN","HHN","NRN","KRK","GRO","MLA","CRL","CPH","WMI","BGY"]}
{"id":192,"iataCode":"WRO","name":"Wroclaw","coordinates":{"latitude":"51.1027","longitude":"16.8858"},"routes":["WAW","BLQ","ORK","LPL","GRO","CRL","MAN","NCL","BGY","MAD","BVA","PMI","AGP","TLV","SNN","DUB","STN","LBA","CHQ","EDI","TRF","BRS","MLA","NAP","GLA","ALC","ATH","LIS","PMO","TFS","CIA","EMA","GDN","BFS"]}
{"id":193,"iataCode":"DOL","name":"Deauville","coordinates":{"latitude":"49.3653","longitude":"0.154306"},"routes":["STN"]}
{"id":194,"iataCode":"PDV","name":"Plovdiv","coordinates":{"latitude":"42.0678","longitude":"24.8508"},"routes":["STN","HHN","CRL","BGY"]}
{"id":195,"iataCode":"PGF","name":"Perpignan","coordinates":{"latitude":"42.7404","longitude":"2.87067"},"routes":["STN","CRL","RAK","FRA","BHX"]}
{"id":196,"iataCode":"WMI","name":"Warsaw Modlin","coordinates":{"latitude":"52.4511","longitude":"20.6517"},"routes":["CRL","BGY","PSR","PMI","AGP","NYO","TLV","TLS","DUB","BHX","STN","BRS","NAP","GLA","FAO","SKG","BCN","EIN","TFS","FKB","VLC","SVQ","BLQ","LPL","LPA","MAN","NCL","MAD","BVA","RMI","GOT","CGN","FMM","TPS","FUE","VDA","SNN","CFU","OPO","LBA","CHQ","EDI","TRF","ALC","ATH","LIS","CAG","TSF","AMM","BOJ","PSA","CIA","EMA","BFS"]}
{"id":197,"iataCode":"SSA","name":"Salvador","coordinates":{"latitude":"-12.5431","longitude":"-38.1921"},"routes":["MAD"]}
{"id":198,"iataCode":"FMM","name":"Memmingen","coordinates":{"latitude":"47.9888","longitude":"10.2395"},"routes":["SVQ","GRO","WMI","OMR","PMI","SOF","AGP","NYO","DUB","BDS","STN","OPO","CHQ","EDI","AHO","ZAD","FEZ","RAK","ALC","ATH","FAO","PMO","SKG","TFS","BOJ"]}
{"id":199,"iataCode":"NDR","name":"Nador","coordinates":{"latitude":"34.9888","longitude":"-3.02821"},"routes":["BCN","BVA","HHN","MRS","NRN","CRL"]}
{"id":200,"iataCode":"PIK","name":"Glasgow Prestwick","coordinates":{"latitude":"55.5094","longitude":"-4.58667"},"routes":["GRO","REU","MLA","RZE","LPA","ALC","FAO","BCN","PMI","AGP","ACE","TFS","IBZ","PSA","CIA","MJV","FUE","CFU"]}
{"id":201,"iataCode":"BVA","name":"Paris Beauvais","coordinates":{"latitude":"49.4544","longitude":"2.11278"},"routes":["GRO","KRK","BGY","PMI","NYO","WRO","DUB","TNG","ZAD","RAK","BRI","BZR","FAO","PMO","SKG","BCN","TFS","OUD","FSC","ZAZ","RBA","VLC","SVQ","BLQ","BTS","MAN","WMI","MAD","NDR","BUD","BDS","OPO","PRG","MLA","FEZ","ALC","LIS","CAG","TSF","PSA","CIA","VNO"]}
{"id":202,"iataCode":"KTW","name":"Katowice","coordinates":{"latitude":"50.4743","longitude":"19.08"},"routes":["STN","CHQ","EDI","MXP","ATH","HAM","DUB","CFU","BHX"]}
{"id":203,"iataCode":"CIY","name":"Comiso","coordinates":{"latitude":"36.9946","longitude":"14.6072"},"routes":["STN","HHN","NRN","MXP","CRL","BGY","FCO","PSA","CIA","DUB","TRN"]}
{"id":204,"iataCode":"NYO","name":"Stockholm Skavsta","coordinates":{"latitude":"58.7886","longitude":"16.9122"},"routes":["INI","GRO","KRK","CRL","BGY","PMI","AGP","BIQ","RHO","STN","NRN","ZAD","NAP","BZR","BRE","FAO","SKG","BCN","EIN","TFS","PFO","RJK","GDN","LPA","VCE","WMI","TGD","BVA","SOF","FMM","BDS","CHQ","EDI","MLA","ALC","TSF","PSA","CIA"]}
{"id":205,"iataCode":"FKB","name":"Karlsruhe / Baden-Baden","coordinates":{"latitude":"48.7794","longitude":"8.0805"},"routes":["SVQ","GRO","WMI","PMI","SOF","AGP","TLV","TPS","VDA","BDS","STN","OPO","EDI","MLA","ZAD","RAK","BRI","ALC","ATH","LIS","SKG","CAG","SUF","TFS","CIA"]}
{"id":206,"iataCode":"RIX","name":"Riga","coordinates":{"latitude":"56.9236","longitude":"23.9711"},"routes":["STN","HHN","LBA","EDI","GRO","SXF","MLA","CRL","GLA","MAN","BRE","BGY","EIN","CGN","BOJ","EMA","PFO","DUB"]}
{"id":207,"iataCode":"DTM","name":"Dortmund","coordinates":{"latitude":"51.5183","longitude":"7.61224"},"routes":["STN","OPO","AHO","LPL","KRK","SKG","PMI","AGP"]}
{"id":208,"iataCode":"BDS","name":"Brindisi","coordinates":{"latitude":"40.6576","longitude":"17.947"},"routes":["CRL","BGY","NYO","STN","FRA","EIN","FKB","VRN","VLC","SVQ","BLQ","MAN","FCO","MAD","BVA","FMM","NUE","MLA","CAG","TSF","PSA","TRN"]}
{"id":209,"iataCode":"CWL","name":"Cardiff","coordinates":{"latitude":"51.3967","longitude":"-3.34333"},"routes":["FAO","DUB","TFS","MAD"]}
{"id":210,"iataCode":"CUF","name":"Cuneo","coordinates":{"latitude":"44.547","longitude":"7.62322"},"routes":["CAG","TPS"]}
{"id":211,"iataCode":"EMA","name":"East Midlands","coordinates":{"latitude":"52.8311","longitude":"-1.32806"},"routes":["GRO","KRK","LCJ","BGY","PMI","AGP","CCF","EGC","RHO","WRO","DUB","DNR","RIX","NAP","RZE","FAO","BCN","TFS","VLC","SVQ","LPA","VCE","WMI","MAH","LIG","ACE","IBZ","MJV","FUE","BUD","CFU","CHQ","SXF","REU","MLA","ALC","TSF","NOC","PSA","CIA"]}
{"id":212,"iataCode":"SCQ","name":"Santiago","coordinates":{"latitude":"42.8963","longitude":"-8.41514"},"routes":["VLC","STN","SVQ","HHN","LPA","ALC","BGY","MAD","BCN","PMI","AGP","ACE","TFS"]}
{"id":213,"iataCode":"TRF","name":"Oslo Torp","coordinates":{"latitude":"59.1867","longitude":"10.2586"},"routes":["STN","KRK","LPA","POZ","MAN","ALC","WMI","HAM","BGY","AGP","TFS","WRO","GDN"]}
{"id":214,"iataCode":"GNB","name":"Grenoble","coordinates":{"latitude":"45.3629","longitude":"5.32937"},"routes":["STN","DUB"]}
{"id":215,"iataCode":"CHQ","name":"Chania","coordinates":{"latitude":"35.5317","longitude":"24.1497"},"routes":["MRS","HHN","BLQ","KRK","BLL","CRL","MAN","WMI","BGY","FCO","FMM","NYO","WRO","DUB","BHX","STN","KTW","LBA","NRN","BRS","GLA","BRE","FRA","ATH","SKG","EIN","TSF","PSA","EMA","PFO","VNO"]}
{"id":216,"iataCode":"LGW","name":"London Gatwick","coordinates":{"latitude":"51.1481","longitude":"-0.190278"},"routes":["ORK","ALC","SNN","DUB","BFS"]}
{"id":217,"iataCode":"TLL","name":"Tallinn","coordinates":{"latitude":"59.4133","longitude":"24.8328"},"routes":["STN","NRN","EDI","GRO","MLA","BRE","BGY","PFO","DUB"]}
{"id":218,"iataCode":"LPP","name":"Lappeenranta","coordinates":{"latitude":"61.0446","longitude":"28.1444"},"routes":["ATH","BGY"]}
{"id":219,"iataCode":"PRG","name":"Prague","coordinates":{"latitude":"50.1008","longitude":"14.26"},"routes":["BLQ","LPL","KRK","CRL","BGY","MAD","BVA","AGP","TPS","VDA","BUD","DUB","STN","EDI","RAK","BCN","EIN","AMM","PSA","CIA"]}
{"id":220,"iataCode":"HAU","name":"Haugesund","coordinates":{"latitude":"59.3453","longitude":"5.20836"},"routes":["AGP","ALC"]}
{"id":221,"iataCode":"RAK","name":"Marrakesh","coordinates":{"latitude":"31.6069","longitude":"-8.0363"},"routes":["VLC","HHN","MRS","SVQ","XCR","LPL","LTN","KRK","DLE","CRL","BGY","PGF","MAD","BVA","CGN","TUF","FMM","NUE","DUB","BUD","STN","OPO","NRN","BRU","PRG","SXF","FNI","NAP","PIS","ATH","HAM","CTA","BCN","EIN","TSF","SDR","FKB","PSA","CIA"]}
{"id":222,"iataCode":"MAD","name":"Madrid","coordinates":{"latitude":"40.4936","longitude":"-3.56676"},"routes":["KRK","CRL","HAV","PMI","EZE","BOG","CCS","DUB","STN","LIM","BRU","BRS","SCQ","ASU","GLA","RAK","BRI","PMO","LUX","CTA","EIN","GRU","SUF","TFS","TFN","MVD","RBA","MRS","BLQ","LPA","MAN","GYE","NCL","MAH","SOF","PUJ","NUE","FUE","FEZ","CPH","TLV","CAG","MIA","BGY","SAP","TLS","JFK","WRO","BHX","TNG","OTP","NAP","FRA","VRN","VVI","SJU","BTS","POZ","WMI","BVA","CGN","ACE","IBZ","CUN","CWL","BUD","BDS","OPO","BOS","PRG","SDQ","SXF","MLA","SSA","HAM","PSA","CIA","VNO"]}
{"id":223,"iataCode":"GYE","name":"Guayaquil","coordinates":{"latitude":"-2.0927","longitude":"-79.5301"},"routes":["MAD"]}
{"id":224,"iataCode":"LDY","name":"Derry","coordinates":{"latitude":"55.0428","longitude":"-7.16111"},"routes":["GLA","EDI","LPL"]}
{"id":225,"iataCode":"CDT","name":"Castellon (Valencia)","coordinates":{"latitude":"39.999","longitude":"0.026"},"routes":["STN","POZ","SOF","BRS"]}
{"id":226,"iataCode":"BTS","name":"Bratislava","coordinates":{"latitude":"48.1702","longitude":"17.2127"},"routes":["BLQ","INI","GRO","CRL","MAN","BGY","MAD","BVA","PMI","AGP","TLV","TPS","VDA","DUB","CFU","BHX","STN","LBA","EDI","AHO","SXF","MLA","ATH","SKG","EIN","BOJ","CIA","PFO"]}
{"id":227,"iataCode":"FNI","name":"Nimes","coordinates":{"latitude":"43.7574","longitude":"4.41635"},"routes":["STN","LPL","LTN","CRL","FEZ","RAK"]}
{"id":228,"iataCode":"BZG","name":"Bydgoszcz","coordinates":{"latitude":"53.0968","longitude":"17.9777"},"routes":["STN","NRN","LTN","GLA","DUB","BHX"]}
{"id":229,"iataCode":"VRN","name":"Verona","coordinates":{"latitude":"45.3957","longitude":"10.8885"},"routes":["STN","SVQ","SXF","CRL","HAM","PMO","MAD","CAG","NUE","BDS","BHX"]}
{"id":230,"iataCode":"TLV","name":"Tel Aviv","coordinates":{"latitude":"32.0034","longitude":"34.5258"},"routes":["HHN","KRK","BTS","CRL","POZ","WMI","BGY","MAD","FCO","WRO","BUD","NRN","SXF","BRE","KUN","FKB","BOJ","PFO","GDN"]}
{"id":231,"iataCode":"BZR","name":"Beziers","coordinates":{"latitude":"43.3235","longitude":"3.3539"},"routes":["BVA","STN","NRN","EDI","LTN","BRS","NYO","MAN"]}
{"id":232,"iataCode":"GRU","name":"Sao Paulo Guarulhos","coordinates":{"latitude":"-23.2608","longitude":"-46.2823"},"routes":["MAD"]}
{"id":233,"iataCode":"PMO","name":"Palermo","coordinates":{"latitude":"38.176","longitude":"13.091"},"routes":["CRL","BGY","WRO","DUB","STN","OTP","NRN","MXP","VRN","VLC","MRS","BLQ","MAN","VCE","FCO","MAD","BVA","CGN","FMM","NUE","BUD","SXF","ATH","TSF","PSA","TRN"]}
{"id":234,"iataCode":"DUB","name":"Dublin","coordinates":{"latitude":"53.4213","longitude":"-6.27007"},"routes":["LTN","KRK","CRL","VGO","LCJ","PMI","TUF","CCF","STN","KTW","BRU","BRS","ZAD","RAK","GLA","BRI","BRE","LUZ","PMO","LUX","LEI","BCN","EIN","KUN","TFS","SDR","BSL","STR","HHN","BLQ","LPL","NTE","LPA","MAN","NCL","VCE","MAD","NCE","SOF","FUE","LBA","EDI","LRH","CPH","PIS","ALC","TSF","AMS","MUC","TRN","GRO","SZG","CIY","BGY","AGP","BIQ","SZZ","WRO","TLL","BHX","OTP","RIX","NAP","RZE","FRA","FAO","BZG","PFO","GDN","VLC","SVQ","BTS","POZ","GNB","LGW","WMI","BVA","CGN","RDZ","FMM","LYS","ACE","IBZ","MJV","CWL","BUD","OPO","CHQ","PRG","SXF","MLA","REU","ATH","LIS","HAM","PSA","CIA","EMA","VNO"]}
{"id":235,"iataCode":"SDR","name":"Santander","coordinates":{"latitude":"43.4271","longitude":"-3.82001"},"routes":["STN","VLC","EDI","NRN","SXF","CRL","RAK","BGY","BCN","AGP","TFS","CIA","DUB","BUD"]}
{"id":236,"iataCode":"CRA","name":"Craiova","coordinates":{"latitude":"44.3181","longitude":"23.8886"},"routes":["VLC"]}
{"id":237,"iataCode":"BOS","name":"Boston","coordinates":{"latitude":"42.2147","longitude":"71.0023"},"routes":["MAD"]}
